[
  {
    "id": "meiji_shrine",
    "name": "메이지 신궁",
    "area": "harajuku",
    "lat": 35.6763,
    "lng": 139.6993,
    "scores": {
      "healing": 10,
      "shopping": 2,
      "active": 4,
      "content": 7,
      "food": 2
    },
    "duration": 60
  },
  {
    "id": "yoyogi_park",
    "name": "요요기 공원",
    "area": "shibuya",
    "lat": 35.6714,
    "lng": 139.6943,
    "scores": {
      "healing": 9,
      "shopping": 1,
      "active": 5,
      "content": 6,
      "food": 3
    },
    "duration": 60
  },
  {
    "id": "shibuya_crossing",
    "name": "시부야 스크램블",
    "area": "shibuya",
    "lat": 35.6595,
    "lng": 139.7004,
    "scores": {
      "healing": 2,
      "shopping": 9,
      "active": 7,
      "content": 10,
      "food": 5
    },
    "duration": 30
  },
  {
    "id": "akihabara",
    "name": "아키하바라",
    "area": "akihabara",
    "lat": 35.7022,
    "lng": 139.7741,
    "scores": {
      "healing": 1,
      "shopping": 10,
      "active": 6,
      "content": 7,
      "food": 4
    },
    "duration": 120
  },
  {
    "id": "tsukiji",
    "name": "츠키지 시장",
    "area": "tsukiji",
    "lat": 35.6654,
    "lng": 139.7707,
    "scores": {
      "healing": 3,
      "shopping": 5,
      "active": 4,
      "content": 6,
      "food": 10
    },
    "duration": 90
  },
  {
    "id": "teamlab",
    "name": "팀랩 플래닛",
    "area": "toyosu",
    "lat": 35.6478,
    "lng": 139.7858,
    "scores": {
      "healing": 5,
      "shopping": 2,
      "active": 7,
      "content": 10,
      "food": 1
    },
    "duration": 120
  },
  {
    "id": "nezu_shrine",
    "name": "네즈 신사",
    "area": "nezu",
    "lat": 35.7218,
    "lng": 139.7625,
    "scores": {
      "healing": 9,
      "shopping": 1,
      "active": 3,
      "content": 8,
      "food": 1
    },
    "duration": 45
  },
  {
    "id": "yanaka",
    "name": "야나카 긴자",
    "area": "yanaka",
    "lat": 35.7265,
    "lng": 139.7659,
    "scores": {
      "healing": 8,
      "shopping": 6,
      "active": 3,
      "content": 8,
      "food": 7
    },
    "duration": 60
  },
  {
    "id": "disney",
    "name": "도쿄 디즈니랜드",
    "area": "urayasu",
    "lat": 35.6329,
    "lng": 139.8804,
    "scores": {
      "healing": 3,
      "shopping": 6,
      "active": 10,
      "content": 8,
      "food": 5
    },
    "duration": 480
  },
  {
    "id": "inokashira",
    "name": "이노카시라 공원",
    "area": "kichijoji",
    "lat": 35.7017,
    "lng": 139.5731,
    "scores": {
      "healing": 9,
      "shopping": 2,
      "active": 4,
      "content": 7,
      "food": 3
    },
    "duration": 90
  }
]